{
  "updated": "weather-engine-v2",
  "venues": [
    {
      "venue": "Suncorp Stadium",
      "city": "Brisbane",
      "lat": -27.4648,
      "lon": 153.0095
    },
    {
      "venue": "Accor Stadium",
      "city": "Sydney",
      "lat": -33.8472,
      "lon": 151.0634
    },
    {
      "venue": "Allianz Stadium",
      "city": "Sydney",
      "lat": -33.889,
      "lon": 151.225
    },
    {
      "venue": "CommBank Stadium",
      "city": "Parramatta",
      "lat": -33.8081,
      "lon": 150.999
    },
    {
      "venue": "AAMI Park",
      "city": "Melbourne",
      "lat": -37.824,
      "lon": 144.9834
    },
    {
      "venue": "McDonald Jones Stadium",
      "city": "Newcastle",
      "lat": -32.9189,
      "lon": 151.7264
    },
    {
      "venue": "Queensland Country Bank Stadium",
      "city": "Townsville",
      "lat": -19.2576,
      "lon": 146.8179
    },
    {
      "venue": "Go Media Stadium",
      "city": "Auckland",
      "lat": -36.919,
      "lon": 174.812
    },
    {
      "venue": "GIO Stadium",
      "city": "Canberra",
      "lat": -35.2501,
      "lon": 149.1015
    },
    {
      "venue": "4 Pines Park",
      "city": "Brookvale",
      "lat": -33.76,
      "lon": 151.269
    },
    {
      "venue": "WIN Stadium",
      "city": "Wollongong",
      "lat": -34.4278,
      "lon": 150.902
    },
    {
      "venue": "Cbus Super Stadium",
      "city": "Gold Coast",
      "lat": -28.0678,
      "lon": 153.3789
    },
    {
      "venue": "BlueBet Stadium",
      "city": "Penrith",
      "lat": -33.758,
      "lon": 150.686
    },
    {
      "venue": "Shark Park",
      "city": "Cronulla",
      "lat": -34.0419,
      "lon": 151.1403
    }
  ]
}